{"total_count": 276, "results": [{"address": "Blasco Iba\u00f1ez - Doctor G\u00f3mez Ferrer (Cl\u00ednico)", "number": 87, "open": "T", "available": 2, "free": 31, "total": 33, "ticket": "T", "updated_at": "02/12/2023 10:00:52", "geo_shape": {"type": "Feature", "geometry": {"coordinates": [-0.36188033357859983, 39.47851834019109], "type": "Point"}, "properties": {}}, "geo_point_2d": {"lon": -0.36188033357859983, "lat": 39.47851834019109}}, {"address": "Blasco Iba\u00f1ez - Clariano", "number": 94, "open": "T", "available": 17, "free": 3, "total": 20, "ticket": "F", "updated_at": "02/12/2023 10:00:52", "geo_shape": {"type": "Feature", "geometry": {"coordinates": [-0.35158330144926053, 39.47537832465668], "type": "Point"}, "properties": {}}, "geo_point_2d": {"lon": -0.35158330144926053, "lat": 39.47537832465668}}, {"address": "Autopista del Saler - Antonio Ferrandis (C.C. El Saler)", "number": 50, "open": "T", "available": 23, "free": 17, "total": 40, "ticket": "T", "updated_at": "02/12/2023 10:00:52", "geo_shape": {"type": "Feature", "geometry": {"coordinates": [-0.3528593228128155, 39.453318252515686], "type": "Point"}, "properties": {}}, "geo_point_2d": {"lon": -0.3528593228128155, "lat": 39.453318252515686}}, {"address": "Blasco Iba\u00f1ez - Jaime Roig", "number": 85, "open": "T", "available": 8, "free": 15, "total": 23, "ticket": "F", "updated_at": "02/12/2023 10:00:52", "geo_shape": {"type": "Feature", "geometry": {"coordinates": [-0.3647153422684407, 39.479464345022826], "type": "Point"}, "properties": {}}, "geo_point_2d": {"lon": -0.3647153422684407, "lat": 39.479464345022826}}, {"address": "Blasco Iba\u00f1ez 121", "number": 97, "open": "T", "available": 12, "free": 11, "total": 23, "ticket": "F", "updated_at": "02/12/2023 10:00:52", "geo_shape": {"type": "Feature", "geometry": {"coordinates": [-0.3431322739648798, 39.47306831276613], "type": "Point"}, "properties": {}}, "geo_point_2d": {"lon": -0.3431322739648798, "lat": 39.47306831276613}}, {"address": "Vicent Vidal - Pintor Maella", "number": 61, "open": "T", "available": 16, "free": 4, "total": 20, "ticket": "T", "updated_at": "02/12/2023 10:00:52", "geo_shape": {"type": "Feature", "geometry": {"coordinates": [-0.34783029886743094, 39.46129327599964], "type": "Point"}, "properties": {}}, "geo_point_2d": {"lon": -0.34783029886743094, "lat": 39.46129327599964}}, {"address": "Ricardo Mu\u00f1oz Suay - Mar\u00eda Jos\u00e9 Victoria Fuster (C.C. El Saler)", "number": 49, "open": "T", "available": 21, "free": 4, "total": 25, "ticket": "F", "updated_at": "02/12/2023 10:00:52", "geo_shape": {"type": "Feature", "geometry": {"coordinates": [-0.3571104198826364, 39.45298693239739], "type": "Point"}, "properties": {}}, "geo_point_2d": {"lon": -0.3571104198826364, "lat": 39.45298693239739}}, {"address": "Plaza Poeta Llorente", "number": 5, "open": "T", "available": 2, "free": 13, "total": 15, "ticket": "T", "updated_at": "02/12/2023 10:00:52", "geo_shape": {"type": "Feature", "geometry": {"coordinates": [-0.3711403661399108, 39.476895339123786], "type": "Point"}, "properties": {}}, "geo_point_2d": {"lon": -0.3711403661399108, "lat": 39.476895339123786}}, {"address": "Plaza de la Virgen - Bail\u00eda", "number": 4, "open": "T", "available": 2, "free": 23, "total": 25, "ticket": "T", "updated_at": "02/12/2023 10:00:52", "geo_shape": {"type": "Feature", "geometry": {"coordinates": [-0.37534238089458904, 39.476747340831494], "type": "Point"}, "properties": {}}, "geo_point_2d": {"lon": -0.37534238089458904, "lat": 39.476747340831494}}, {"address": "Plaza de la Reina - Mar", "number": 8, "open": "F", "available": 2, "free": 7, "total": 9, "ticket": "T", "updated_at": "02/12/2023 10:00:52", "geo_shape": {"type": "Feature", "geometry": {"coordinates": [-0.3750843825510484, 39.47432033281947], "type": "Point"}, "properties": {}}, "geo_point_2d": {"lon": -0.3750843825510484, "lat": 39.47432033281947}}, {"address": "Hospital - Horno del Hospital", "number": 10, "open": "T", "available": 1, "free": 14, "total": 15, "ticket": "T", "updated_at": "02/12/2023 10:00:52", "geo_shape": {"type": "Feature", "geometry": {"coordinates": [-0.38261041097634013, 39.470816323984536], "type": "Point"}, "properties": {}}, "geo_point_2d": {"lon": -0.38261041097634013, "lat": 39.470816323984536}}, {"address": "Huesca - Bar\u00f3n de C\u00e1rcer", "number": 14, "open": "T", "available": 8, "free": 12, "total": 20, "ticket": "T", "updated_at": "02/12/2023 10:00:52", "geo_shape": {"type": "Feature", "geometry": {"coordinates": [-0.37972440222295445, 39.46896731649349], "type": "Point"}, "properties": {}}, "geo_point_2d": {"lon": -0.37972440222295445, "lat": 39.46896731649349}}, {"address": "Quart - Fernando el Cat\u00f3lico", "number": 20, "open": "T", "available": 11, "free": 5, "total": 16, "ticket": "T", "updated_at": "02/12/2023 10:00:52", "geo_shape": {"type": "Feature", "geometry": {"coordinates": [-0.3878474253260651, 39.47503434099054], "type": "Point"}, "properties": {}}, "geo_point_2d": {"lon": -0.3878474253260651, "lat": 39.47503434099054}}, {"address": "Angel Guimer\u00e1 - Juan Llorens", "number": 22, "open": "T", "available": 1, "free": 14, "total": 15, "ticket": "F", "updated_at": "02/12/2023 10:00:52", "geo_shape": {"type": "Feature", "geometry": {"coordinates": [-0.3883534313205414, 39.46978732404922], "type": "Point"}, "properties": {}}, "geo_point_2d": {"lon": -0.3883534313205414, "lat": 39.46978732404922}}, {"address": "Peris y Valero - Luis Sant\u00e1ngel", "number": 37, "open": "T", "available": 1, "free": 19, "total": 20, "ticket": "T", "updated_at": "02/12/2023 10:00:52", "geo_shape": {"type": "Feature", "geometry": {"coordinates": [-0.3664406250017559, 39.460937800028375], "type": "Point"}, "properties": {}}, "geo_point_2d": {"lon": -0.3664406250017559, "lat": 39.460937800028375}}, {"address": "Peris y Valero - Cuba", "number": 39, "open": "T", "available": 12, "free": 7, "total": 19, "ticket": "T", "updated_at": "02/12/2023 10:00:52", "geo_shape": {"type": "Feature", "geometry": {"coordinates": [-0.3739313916673185, 39.457854277261184], "type": "Point"}, "properties": {}}, "geo_point_2d": {"lon": -0.3739313916673185, "lat": 39.457854277261184}}, {"address": "Plaza Am\u00e9rica - Cirilo Amor\u00f3s - Sorn\u00ed", "number": 29, "open": "T", "available": 2, "free": 18, "total": 20, "ticket": "T", "updated_at": "02/12/2023 10:00:52", "geo_shape": {"type": "Feature", "geometry": {"coordinates": [-0.3652993525279599, 39.47011231364647], "type": "Point"}, "properties": {}}, "geo_point_2d": {"lon": -0.3652993525279599, "lat": 39.47011231364647}}, {"address": "Alfonso el Magn\u00e1nimo - Nave", "number": 13, "open": "T", "available": 13, "free": 11, "total": 24, "ticket": "T", "updated_at": "02/12/2023 10:00:52", "geo_shape": {"type": "Feature", "geometry": {"coordinates": [-0.37087436964085335, 39.4720623227334], "type": "Point"}, "properties": {}}, "geo_point_2d": {"lon": -0.37087436964085335, "lat": 39.4720623227334}}, {"address": "Ribera - Plaza Ayuntamiento", "number": 15, "open": "T", "available": 2, "free": 32, "total": 34, "ticket": "T", "updated_at": "02/12/2023 10:00:52", "geo_shape": {"type": "Feature", "geometry": {"coordinates": [-0.3756373880434071, 39.46908831533384], "type": "Point"}, "properties": {}}, "geo_point_2d": {"lon": -0.3756373880434071, "lat": 39.46908831533384}}, {"address": "X\u00e1tiva - Bail\u00e9n (Estaci\u00f3n del Norte)", "number": 17, "open": "T", "available": 8, "free": 22, "total": 30, "ticket": "T", "updated_at": "02/12/2023 10:00:52", "geo_shape": {"type": "Feature", "geometry": {"coordinates": [-0.3772593951806123, 39.46746831099193], "type": "Point"}, "properties": {}}, "geo_point_2d": {"lon": -0.3772593951806123, "lat": 39.46746831099193}}]}